[
    {
      "id": 1,
      "name": "Jayvion Simon",
      "location": "Heisenberg",
      "address": "19034 Verna Unions Apt. 164 - Honolulu, RI / 87535",
      "phoneNumber": "365-374-4961"
    },
    {
      "id": 2,
      "name": "John Doe",
      "location": "Heisenberg",
      "address": "123 Main St - Anytown, USA / 12345",
      "phoneNumber": "555-1234"
    },
    {
      "id": 3,
      "name": "John Doe",
      "location": "Heisenberg",
      "address": "123 Main St - Anytown, USA / 12345",
      "phoneNumber": "555-1234"
    },
    {
      "id": 4,
      "name": "John Doe",
      "location": "Heisenberg",
      "address": "123 Main St - Anytown, USA / 12345",
      "phoneNumber": "555-1234"
    },
    {
      "id": 5,
      "name": "John Doe",
      "location": "Heisenberg",
      "address": "123 Main St - Anytown, USA / 12345",
      "phoneNumber": "555-1234"
    },
    {
      "id": 6,
      "name": "John Doe",
      "location": "Heisenberg",
      "address": "123 Main St - Anytown, USA / 12345",
      "phoneNumber": "555-1234"
    },
    {
      "id": 7,
      "name": "John Doe",
      "location": "Heisenberg",
      "address": "123 Main St - Anytown, USA / 12345",
      "phoneNumber": "555-1234"
    },
    {
      "id": 8,
      "name": "John Doe",
      "location": "Heisenberg",
      "address": "123 Main St - Anytown, USA / 12345",
      "phoneNumber": "555-1234"
    },
    {
      "id": 9,
      "name": "John Doe",
      "location": "Heisenberg",
      "address": "123 Main St - Anytown, USA / 12345",
      "phoneNumber": "555-1234"
    },
    {
      "id": 10,
      "name": "John Doe",
      "location": "Heisenberg",
      "address": "123 Main St - Anytown, USA / 12345",
      "phoneNumber": "555-1234"
    }
  ]
  